City_ID,City,Country,Date,Lat,Lng,Max Temp,Humidity,Cloudiness,Wind Speed,Current Description
0,Georgetown,MY,2022-09-23 15:50:09,5.4112,100.3354,80.53,93,20,3.44,heavy intensity rain
1,Albany,US,2022-09-23 15:52:53,42.6001,-73.9662,53.78,59,10,1.99,clear sky
2,Barreirinha,BR,2022-09-23 15:52:54,-2.7933,-57.07,103.19,20,2,4.83,clear sky
3,Bluff,NZ,2022-09-23 15:52:54,-46.6,168.3333,49.8,86,89,8.25,overcast clouds
4,Bethel,US,2022-09-23 15:52:54,41.3712,-73.414,59.9,57,20,12.66,few clouds
5,Tasiilaq,GL,2022-09-23 15:52:55,65.6145,-37.6368,41.59,69,85,4.92,overcast clouds
6,Faanui,PF,2022-09-23 15:43:47,-16.4833,-151.75,77.05,77,35,21.97,light rain
7,The Valley,AI,2022-09-23 15:50:05,18.217,-63.0578,87.66,74,20,12.66,few clouds
8,Teya,RU,2022-09-23 15:52:55,60.3778,92.6267,35.62,97,100,6.6,overcast clouds
9,Lask,PL,2022-09-23 15:52:55,51.5906,19.1328,59.36,76,50,2.73,scattered clouds
10,Mataura,NZ,2022-09-23 15:52:56,-46.1927,168.8643,49.48,99,62,0.78,broken clouds
11,Dalhousie,IN,2022-09-23 15:52:56,32.5333,75.9833,58.73,87,73,4.59,broken clouds
12,Souillac,MU,2022-09-23 15:43:50,-20.5167,57.5167,71.98,78,75,17.27,broken clouds
13,Rikitea,PF,2022-09-23 15:49:36,-23.1203,-134.9692,71.1,74,11,9.66,few clouds
14,Barrow,US,2022-09-23 15:52:57,71.2906,-156.7887,32.02,80,100,14.97,overcast clouds
15,Saint George,US,2022-09-23 15:49:17,37.1041,-113.5841,75.43,34,0,3.44,clear sky
16,Kaabong,UG,2022-09-23 15:52:57,3.4836,34.1492,73.65,45,96,8.93,overcast clouds
17,Jamestown,US,2022-09-23 15:48:47,42.097,-79.2353,50.52,52,100,13.8,overcast clouds
18,Castro,BR,2022-09-23 15:52:32,-24.7911,-50.0119,57.25,52,0,10.74,clear sky
19,Caucaia,BR,2022-09-23 15:52:57,-3.7361,-38.6531,87.75,58,40,17.27,scattered clouds
20,Chuy,UY,2022-09-23 15:52:58,-33.6971,-53.4616,61.38,42,6,11.48,clear sky
21,Ushuaia,AR,2022-09-23 15:50:45,-54.8,-68.3,53.26,35,0,10.36,clear sky
22,Tuktoyaktuk,CA,2022-09-23 15:52:58,69.4541,-133.0374,35.6,93,100,14.97,overcast clouds
23,Punta Arenas,CL,2022-09-23 15:52:58,-53.15,-70.9167,48.31,57,75,13.8,broken clouds
24,Broken Hill,AU,2022-09-23 15:45:11,-31.95,141.4333,53.49,84,17,12.71,few clouds
25,Cabo San Lucas,MX,2022-09-23 15:52:12,22.8909,-109.9124,88.05,74,9,1.19,clear sky
26,Cape Town,ZA,2022-09-23 15:52:59,-33.9258,18.4232,60.1,52,20,12.66,few clouds
27,Huizhou,CN,2022-09-23 15:52:59,23.0833,114.4,78.55,81,97,2.19,overcast clouds
28,Avarua,CK,2022-09-23 15:52:59,-21.2078,-159.775,73.45,68,75,9.22,broken clouds
29,Ko Samui,TH,2022-09-23 15:52:18,9.5357,99.9357,82.31,78,40,4.61,light rain
30,Sola,VU,2022-09-23 15:53:00,-13.8833,167.55,80.08,77,26,8.61,scattered clouds
31,Kaeo,NZ,2022-09-23 15:53:00,-35.1,173.7833,53.33,93,65,7.2,broken clouds
32,Atuona,PF,2022-09-23 15:52:05,-9.8,-139.0333,75.43,81,44,15.5,light rain
33,Saldanha,ZA,2022-09-23 15:53:00,-33.0117,17.9442,59.05,56,100,16.71,overcast clouds
34,Ayan,RU,2022-09-23 15:53:01,56.45,138.1667,46.72,86,100,10.36,light rain
35,Manggar,ID,2022-09-23 15:53:01,-2.8833,108.2667,78.57,86,100,8.9,overcast clouds
36,Mogadouro,PT,2022-09-23 15:53:01,41.3403,-6.7119,80.26,22,100,7.45,overcast clouds
37,Don Sak,TH,2022-09-23 15:53:02,9.3168,99.6918,82.29,78,100,9.26,overcast clouds
38,Kjollefjord,NO,2022-09-23 15:53:02,70.9457,27.3465,51.85,77,100,19.28,overcast clouds
39,Santa Rosa Del Sur,CO,2022-09-23 15:53:03,7.9644,-74.0544,79.02,62,99,2.04,overcast clouds
40,Jinchang,CN,2022-09-23 15:43:55,38.4953,102.1739,58.06,36,100,3.51,overcast clouds
41,Hermanus,ZA,2022-09-23 15:53:03,-34.4187,19.2345,58.8,56,100,11.99,overcast clouds
42,Busselton,AU,2022-09-23 15:53:03,-33.65,115.3333,55.85,87,93,12.46,overcast clouds
43,Broome,US,2022-09-23 15:47:48,42.2506,-75.833,52.02,65,75,16.11,broken clouds
44,Winston-Salem,US,2022-09-23 15:50:47,36.0999,-80.2442,66.13,45,0,5.75,clear sky
45,Constitucion,CL,2022-09-23 15:53:04,-35.3333,-72.4167,59.05,67,100,13.35,light rain
46,Araouane,ML,2022-09-23 15:53:04,18.9048,-3.5265,103.03,18,8,2.06,clear sky
47,Hasaki,JP,2022-09-23 15:45:08,35.7333,140.8333,80.22,86,100,19.24,overcast clouds
48,Finschhafen,PG,2022-09-23 15:54:05,-6.6024,147.8681,79.21,76,91,7.27,heavy intensity rain
49,Port Elizabeth,ZA,2022-09-23 15:49:37,-33.918,25.5701,61.32,64,0,12.66,clear sky
50,Khor,RU,2022-09-23 15:54:05,47.8861,134.9464,52.47,79,90,7.56,overcast clouds
51,Hami,CN,2022-09-23 15:54:06,42.8,93.45,71.82,11,93,5.59,overcast clouds
52,Lagoa,PT,2022-09-23 15:54:07,39.05,-27.9833,72.84,86,92,30.38,light rain
53,Kodinsk,RU,2022-09-23 15:54:07,58.6881,99.1844,38.17,91,97,9.19,overcast clouds
54,Petropavlovsk-Kamchatskiy,RU,2022-09-23 15:54:07,53.0452,158.6483,37.99,87,0,4.47,clear sky
55,Kortkeros,RU,2022-09-23 15:54:08,61.8106,51.5806,44.6,84,100,4.79,overcast clouds
56,Bredasdorp,ZA,2022-09-23 15:54:08,-34.5322,20.0403,56.35,48,100,9.33,overcast clouds
57,Touros,BR,2022-09-23 15:54:08,-5.1989,-35.4608,84.9,63,35,14.74,scattered clouds
58,Cidreira,BR,2022-09-23 15:54:09,-30.1811,-50.2056,59.61,56,60,21.5,broken clouds
59,Kutum,SD,2022-09-23 15:54:09,14.2,24.6667,84.87,21,100,5.12,overcast clouds
60,Esperance,AU,2022-09-23 15:52:59,-33.8667,121.9,60.1,58,87,13.6,overcast clouds
61,Alta Floresta,BR,2022-09-23 15:54:10,-9.8756,-56.0861,93.02,52,40,5.75,smoke
62,Khatanga,RU,2022-09-23 15:54:10,71.9667,102.5,23.0,92,95,8.61,overcast clouds
63,Meulaboh,ID,2022-09-23 15:54:10,4.1363,96.1285,77.38,87,100,4.5,light rain
64,Ponta Delgada,PT,2022-09-23 15:54:11,37.7333,-25.6667,79.5,88,40,6.91,light rain
65,Port Alfred,ZA,2022-09-23 15:54:11,-33.5906,26.891,62.19,78,74,1.01,broken clouds
66,Mwense,ZM,2022-09-23 15:54:12,-10.3845,28.698,87.42,11,8,7.54,clear sky
67,Itaqui,BR,2022-09-23 15:51:04,-29.1253,-56.5531,66.13,41,0,7.65,clear sky
68,Sinnamary,GF,2022-09-23 15:54:12,5.3833,-52.95,86.63,61,0,7.9,clear sky
69,Nikolskoye,RU,2022-09-23 15:54:12,59.7035,30.7861,51.69,90,24,4.88,few clouds
70,Yaan,NG,2022-09-23 15:54:13,7.3833,8.5667,77.23,87,100,3.2,overcast clouds
71,Turayf,SA,2022-09-23 15:54:13,31.6725,38.6637,86.25,35,0,9.22,clear sky
72,Puro,PH,2022-09-23 15:54:13,12.4841,123.3827,76.57,94,100,13.15,overcast clouds
73,Acapulco,MX,2022-09-23 15:54:02,16.8634,-99.8901,82.31,70,11,0.54,few clouds
74,Saskylakh,RU,2022-09-23 15:54:14,71.9167,114.0833,20.41,92,70,3.83,broken clouds
75,Ponta Do Sol,PT,2022-09-23 15:54:14,32.6667,-17.1,77.63,70,31,4.36,scattered clouds
76,Albury,AU,2022-09-23 15:54:14,-36.0833,146.9167,54.14,100,97,1.99,overcast clouds
77,Namibe,AO,2022-09-23 15:54:15,-15.1961,12.1522,68.7,63,1,13.04,clear sky
78,Cherskiy,RU,2022-09-23 15:54:15,68.75,161.3,32.65,85,19,9.22,few clouds
79,Lasa,IT,2022-09-23 15:54:15,46.6166,10.7002,63.48,65,98,2.48,overcast clouds
80,Lebu,CL,2022-09-23 15:54:15,-37.6167,-73.65,54.77,79,58,13.89,broken clouds
81,Santa Cruz Cabralia,BR,2022-09-23 15:54:16,-16.2781,-39.0247,86.23,66,40,11.5,scattered clouds
82,Creston,US,2022-09-23 15:54:16,41.0586,-94.3614,52.34,100,100,8.05,overcast clouds
83,Luwuk,ID,2022-09-23 15:54:17,-0.9516,122.7875,76.05,77,89,4.52,overcast clouds
84,Inirida,CO,2022-09-23 15:54:17,3.8653,-67.9239,93.6,49,48,0.49,scattered clouds
85,New Norfolk,AU,2022-09-23 15:54:17,-42.7826,147.0587,49.5,84,100,3.0,overcast clouds
86,Nouadhibou,MR,2022-09-23 15:54:18,20.931,-17.0347,85.98,66,20,3.44,few clouds
87,Leningradskiy,RU,2022-09-23 15:54:19,69.3833,178.4167,34.9,95,100,9.78,light snow
88,Vila Velha,BR,2022-09-23 15:54:07,-20.3297,-40.2925,80.55,80,40,11.99,scattered clouds
89,Quartucciu,IT,2022-09-23 15:54:20,39.2519,9.1794,76.03,54,20,10.36,few clouds
90,Ancud,CL,2022-09-23 15:46:33,-41.8697,-73.8203,49.23,66,14,2.59,few clouds
91,Salalah,OM,2022-09-23 15:47:57,17.0151,54.0924,80.69,89,75,9.22,broken clouds
92,Saravan,AM,2022-09-23 15:54:20,39.7196,45.6483,61.2,39,24,1.39,few clouds
93,Male,MV,2022-09-23 15:54:21,4.1748,73.5089,82.35,78,20,9.22,few clouds
94,Bayan,CN,2022-09-23 15:55:21,46.0833,127.4,53.64,96,100,5.5,moderate rain
95,Monticello,US,2022-09-23 15:55:22,45.3055,-93.7941,53.24,89,100,11.5,overcast clouds
96,Namatanai,PG,2022-09-23 15:55:23,-3.6667,152.4333,79.74,79,95,8.1,overcast clouds
97,Margate,GB,2022-09-23 15:55:23,51.3813,1.3862,60.31,92,100,3.0,overcast clouds
98,Codrington,AU,2022-09-23 15:55:23,-38.2667,141.9667,49.87,65,94,15.57,overcast clouds
99,Thompson,CA,2022-09-23 15:55:24,55.7435,-97.8558,50.16,81,20,6.91,few clouds
100,Tiksi,RU,2022-09-23 15:55:24,71.6872,128.8694,20.73,92,99,3.49,overcast clouds
101,Erzin,TR,2022-09-23 15:55:24,36.9559,36.2,70.56,73,5,4.72,clear sky
102,Cairns,AU,2022-09-23 15:55:15,-16.9167,145.7667,73.35,93,75,0.0,broken clouds
103,Pangnirtung,CA,2022-09-23 15:55:25,66.1451,-65.7125,35.6,60,20,3.44,few clouds
104,Kang,BW,2022-09-23 15:55:25,-23.6752,22.7876,82.6,11,0,4.72,clear sky
105,Hithadhoo,MV,2022-09-23 15:55:25,-0.6,73.0833,82.78,72,85,5.91,overcast clouds
106,Sirnak,TR,2022-09-23 15:55:25,37.5228,42.4594,65.71,31,0,3.62,clear sky
107,Kashi,CN,2022-09-23 15:55:26,39.4547,75.9797,72.61,40,22,4.47,few clouds
108,Severo-Kurilsk,RU,2022-09-23 15:55:26,50.6789,156.125,50.22,74,99,4.79,overcast clouds
109,Kenai,US,2022-09-23 15:55:26,60.5544,-151.2583,44.69,92,100,3.44,overcast clouds
110,Saint-Philippe,RE,2022-09-23 15:55:27,-21.3585,55.7679,72.99,83,42,14.61,light rain
111,Hambantota,LK,2022-09-23 15:55:27,6.1241,81.1185,82.74,74,20,9.22,few clouds
112,Kochki,RU,2022-09-23 15:55:27,54.3358,80.4806,52.05,37,100,2.24,overcast clouds
113,Oktyabrskiy,RU,2022-09-23 15:55:28,54.4815,53.471,67.96,25,100,4.63,overcast clouds
114,Caravelas,BR,2022-09-23 15:55:28,-17.7125,-39.2481,88.48,54,29,13.35,scattered clouds
115,Kodiak,US,2022-09-23 15:55:28,57.79,-152.4072,46.74,76,79,13.33,broken clouds
116,Talnakh,RU,2022-09-23 15:55:28,69.4865,88.3972,31.21,89,94,4.5,overcast clouds
117,Hobart,AU,2022-09-23 15:55:29,-42.8794,147.3294,49.86,89,75,18.41,light intensity shower rain
118,Makakilo City,US,2022-09-23 15:55:29,21.3469,-158.0858,76.69,87,100,4.61,light rain
119,Eureka,US,2022-09-23 15:55:29,40.8021,-124.1637,58.19,88,41,1.99,scattered clouds
120,Miri,MY,2022-09-23 15:50:48,4.4148,114.0089,77.14,94,20,0.0,few clouds
121,Butaritari,KI,2022-09-23 15:55:30,3.0707,172.7902,81.45,70,100,13.65,overcast clouds
122,Sept-Iles,CA,2022-09-23 15:53:19,50.2001,-66.3821,55.92,65,75,17.27,broken clouds
123,Los Llanos De Aridane,ES,2022-09-23 15:55:30,28.6585,-17.9182,74.12,75,75,9.22,broken clouds
124,Lima,PE,2022-09-23 15:54:11,-12.0432,-77.0282,62.91,80,100,8.05,overcast clouds
125,Kapaa,US,2022-09-23 15:55:31,22.0752,-159.319,73.38,79,35,1.01,scattered clouds
126,Dikson,RU,2022-09-23 15:55:31,73.5069,80.5464,32.99,73,51,22.3,broken clouds
127,Zyryanka,RU,2022-09-23 15:55:31,65.75,150.85,32.83,98,100,9.75,light snow
128,Vaini,TO,2022-09-23 15:55:31,-21.2,-175.2,75.36,94,75,9.22,broken clouds
129,Mantua,IT,2022-09-23 15:55:32,45.1667,10.7833,72.09,48,72,1.99,broken clouds
130,Puerto Penasco,MX,2022-09-23 15:55:32,31.3167,-113.5333,85.98,69,20,0.0,few clouds
131,Curup,ID,2022-09-23 15:55:33,-3.4667,102.5333,66.38,94,99,1.52,overcast clouds
132,Havelock,US,2022-09-23 15:55:33,34.8791,-76.9013,66.97,53,0,19.57,clear sky
133,Moskovskiy,RU,2022-09-23 15:55:33,55.5991,37.355,51.87,72,20,7.0,few clouds
134,Grand Gaube,MU,2022-09-23 15:55:34,-20.0064,57.6608,72.37,69,1,7.0,clear sky
135,Sassandra,CI,2022-09-23 15:55:34,4.95,-6.0833,78.75,81,99,8.52,light rain
136,Ostrovnoy,RU,2022-09-23 15:55:34,68.0531,39.5131,44.1,74,100,11.01,overcast clouds
137,Bisira,PA,2022-09-23 15:55:35,8.5196,-81.7115,70.7,74,85,1.19,overcast clouds
138,Upernavik,GL,2022-09-23 15:55:35,72.7868,-56.1549,28.04,69,39,11.95,scattered clouds
139,Port Lincoln,AU,2022-09-23 15:55:35,-34.7333,135.8667,50.58,69,26,10.85,scattered clouds
140,Yellowknife,CA,2022-09-23 15:55:36,62.456,-114.3525,52.32,62,20,9.22,few clouds
141,Kaitangata,NZ,2022-09-23 15:56:36,-46.2817,169.8464,43.32,96,33,3.78,scattered clouds
142,Shakawe,BW,2022-09-23 15:56:37,-18.3667,21.85,88.47,5,0,2.95,clear sky
143,Foshan,CN,2022-09-23 15:56:37,23.0268,113.1315,86.95,64,95,5.26,overcast clouds
144,Vao,NC,2022-09-23 15:56:39,-22.6667,167.4833,72.25,77,76,13.44,broken clouds
145,Fuerte Olimpo,PY,2022-09-23 15:56:39,-21.0415,-57.8738,73.47,22,96,8.84,overcast clouds
146,Yen Bai,VN,2022-09-23 15:56:39,21.7,104.8667,75.92,86,66,2.04,broken clouds
147,Murgab,TM,2022-09-23 15:56:40,37.4966,61.9714,82.27,26,0,4.61,clear sky
148,Avera,US,2022-09-23 15:56:40,33.194,-82.5271,71.11,27,3,11.59,clear sky
149,Revelstoke,CA,2022-09-23 15:56:40,50.9832,-118.2023,44.62,100,100,2.3,overcast clouds
150,Harper,LR,2022-09-23 15:56:40,4.375,-7.7169,78.15,83,98,9.1,moderate rain
151,Sao Joao Da Barra,BR,2022-09-23 15:55:14,-21.6403,-41.0511,80.69,66,87,24.32,overcast clouds
152,Yendi,GH,2022-09-23 15:56:41,9.4427,-0.0099,85.8,68,74,4.52,light rain
153,Cache Creek,CA,2022-09-23 15:56:41,50.8101,-121.3246,55.9,69,57,3.74,broken clouds
154,Lompoc,US,2022-09-23 15:56:41,34.6391,-120.4579,74.79,46,0,2.51,clear sky
155,Puerto Ayora,EC,2022-09-23 15:56:42,-0.7393,-90.3518,67.55,94,99,7.0,overcast clouds
156,Paamiut,GL,2022-09-23 15:56:42,61.994,-49.6678,47.44,88,100,30.38,light rain
157,Atar,MR,2022-09-23 15:56:42,20.5169,-13.0499,100.98,26,18,17.81,few clouds
158,Moranbah,AU,2022-09-23 15:56:43,-22.0016,148.0466,66.36,50,0,2.48,clear sky
159,Arraial Do Cabo,BR,2022-09-23 15:56:43,-22.9661,-42.0278,75.16,73,0,23.02,clear sky
160,Dumai,ID,2022-09-23 15:56:43,1.6833,101.45,73.33,97,81,3.56,broken clouds
161,Taoudenni,ML,2022-09-23 15:56:43,22.6783,-3.9836,108.12,13,17,0.98,few clouds
162,Yumen,CN,2022-09-23 15:56:44,40.2833,97.2,60.48,22,100,7.31,overcast clouds
163,Dagda,LV,2022-09-23 15:56:44,56.0951,27.5372,47.53,80,91,4.47,overcast clouds
164,Mokhsogollokh,RU,2022-09-23 15:56:45,61.4681,128.9203,29.43,86,87,7.78,overcast clouds
165,Copiapo,CL,2022-09-23 15:56:45,-27.3667,-70.3333,55.09,34,3,7.76,clear sky
166,Marica,BR,2022-09-23 15:56:45,-22.9194,-42.8186,73.35,69,85,16.87,overcast clouds
167,Kahului,US,2022-09-23 15:56:45,20.8947,-156.47,78.84,79,82,4.0,broken clouds
168,Seoul,KR,2022-09-23 15:56:46,37.5683,126.9778,62.04,75,0,4.61,clear sky
169,Chokurdakh,RU,2022-09-23 15:56:47,70.6333,147.9167,33.91,82,100,3.38,overcast clouds
170,Kruisfontein,ZA,2022-09-23 15:56:49,-34.0033,24.7314,57.88,55,99,6.93,overcast clouds
171,Pevek,RU,2022-09-23 15:56:49,69.7008,170.3133,32.77,90,17,14.9,few clouds
172,Najran,SA,2022-09-23 15:56:49,17.4924,44.1277,90.25,16,36,10.98,scattered clouds
173,Krasnogvardeyskiy,RU,2022-09-23 15:56:49,57.3793,62.3195,57.47,48,89,3.09,overcast clouds
174,Cravo Norte,CO,2022-09-23 15:56:51,6.3017,-70.2041,88.99,56,59,3.78,broken clouds
175,Piombino,IT,2022-09-23 15:56:52,42.9348,10.5221,72.45,38,11,5.01,few clouds
176,Kropotkin,RU,2022-09-23 15:56:52,45.4375,40.5756,56.79,79,48,14.32,scattered clouds
177,Lucera,IT,2022-09-23 15:56:53,41.5082,15.3351,66.06,35,1,7.94,clear sky
178,Koudougou,BF,2022-09-23 15:56:53,12.25,-2.3667,90.88,49,21,5.03,few clouds
179,Snezhnogorsk,RU,2022-09-23 15:56:53,69.1933,33.2531,47.98,91,100,9.26,overcast clouds
180,Miraflores,MX,2022-09-23 15:56:54,19.2167,-98.8083,61.03,58,19,4.47,few clouds
181,Russell,US,2022-09-23 15:52:57,32.3502,-85.1999,76.96,46,0,12.66,clear sky
182,Deer Lake,CA,2022-09-23 15:56:54,49.1667,-57.4316,69.66,88,100,17.27,overcast clouds
183,Bandarbeyla,SO,2022-09-23 15:56:54,9.4942,50.8122,78.03,85,42,24.92,scattered clouds
184,Moose Factory,CA,2022-09-23 15:56:55,51.2585,-80.6094,53.6,66,75,13.8,broken clouds
185,Caraballeda,VE,2022-09-23 15:47:51,10.6112,-66.8522,93.87,53,62,3.44,broken clouds
186,Awbari,LY,2022-09-23 15:57:55,26.5921,12.7805,100.49,12,18,17.29,few clouds
187,Narsaq,GL,2022-09-23 15:57:55,60.9167,-46.05,45.86,95,100,7.78,moderate rain
188,Batagay,RU,2022-09-23 15:57:56,67.6333,134.6333,28.71,88,100,2.95,overcast clouds
189,Omboue,GA,2022-09-23 15:57:56,-1.5746,9.2618,78.67,79,100,10.2,overcast clouds
190,Zhob,PK,2022-09-23 15:57:56,31.3411,69.4481,79.41,30,0,8.03,clear sky
191,Luderitz,NA,2022-09-23 15:57:56,-26.6481,15.1594,61.84,69,3,20.07,clear sky
192,Airai,TL,2022-09-23 15:57:57,-8.9266,125.4092,60.62,64,94,2.66,overcast clouds
193,Necochea,AR,2022-09-23 15:56:50,-38.5473,-58.7368,60.04,52,7,5.12,clear sky
194,Monrovia,LR,2022-09-23 15:56:23,6.3005,-10.7969,82.17,79,100,10.07,light rain
195,Anadyr,RU,2022-09-23 15:57:59,64.75,177.4833,41.5,80,75,17.9,broken clouds
196,Vestmannaeyjar,IS,2022-09-23 15:58:00,63.4427,-20.2734,50.99,76,100,8.05,overcast clouds
197,Iqaluit,CA,2022-09-23 15:58:00,63.7506,-68.5145,35.33,51,20,10.36,few clouds
198,Rudsar,IR,2022-09-23 15:58:00,37.1376,50.288,80.58,60,38,5.88,scattered clouds
199,Sibu,MY,2022-09-23 15:58:01,2.3,111.8167,77.31,88,40,0.0,scattered clouds
200,Preobrazheniye,RU,2022-09-23 15:58:01,42.9019,133.9064,58.51,83,97,13.42,overcast clouds
201,Pontes E Lacerda,BR,2022-09-23 15:58:01,-15.2261,-59.3353,86.36,34,100,6.15,overcast clouds
202,Trelew,AR,2022-09-23 15:53:28,-43.249,-65.3051,61.41,39,49,16.44,scattered clouds
203,Aguimes,ES,2022-09-23 15:58:02,27.9054,-15.4461,76.66,61,20,25.32,few clouds
204,Santa Cruz De La Palma,ES,2022-09-23 15:58:02,28.6835,-17.7642,78.13,73,75,9.22,broken clouds
205,Picui,BR,2022-09-23 15:58:03,-6.5106,-36.3469,90.16,35,0,10.87,clear sky
206,Wanning,CN,2022-09-23 15:58:03,18.8003,110.3967,77.74,88,100,8.32,overcast clouds
207,Kailua,US,2022-09-23 15:54:52,21.4022,-157.7394,78.15,87,20,4.61,few clouds
208,Ruidoso,US,2022-09-23 15:58:03,33.3317,-105.673,71.56,45,0,3.44,clear sky
209,Belyy Yar,RU,2022-09-23 15:58:04,53.6039,91.3903,49.89,70,62,0.0,broken clouds
210,Ambulu,ID,2022-09-23 15:58:04,-8.345,113.6058,76.37,92,68,2.57,broken clouds
211,Vanimo,PG,2022-09-23 15:58:05,-2.6741,141.3028,78.57,87,100,5.59,light rain
212,Skjervoy,NO,2022-09-23 15:58:05,70.0311,20.9714,51.8,77,100,10.83,light rain
213,Tarakan,ID,2022-09-23 15:55:04,3.3,117.6333,81.9,83,20,4.61,few clouds
214,Bure,ET,2022-09-23 15:58:06,10.7,37.0667,58.33,92,100,2.1,light rain
215,Ahipara,NZ,2022-09-23 15:58:06,-35.1667,173.1667,56.37,87,73,13.8,broken clouds
216,Mahebourg,MU,2022-09-23 15:58:07,-20.4081,57.7,72.25,78,75,17.27,broken clouds
217,East London,ZA,2022-09-23 15:58:07,-33.0153,27.9116,61.74,82,40,11.5,scattered clouds
218,Karratha,AU,2022-09-23 15:58:07,-20.7377,116.8463,77.61,48,1,12.48,moderate rain
219,Gavle,SE,2022-09-23 15:58:07,60.6745,17.1417,57.38,82,100,1.01,overcast clouds
220,Aktas,KZ,2022-09-23 15:58:08,49.7789,72.9608,55.15,46,1,9.84,clear sky
221,Antofagasta,CL,2022-09-23 15:58:08,-23.65,-70.4,60.08,57,0,6.93,clear sky
222,Fairbanks,US,2022-09-23 15:58:08,64.8378,-147.7164,34.92,92,45,2.71,scattered clouds
223,Bengkulu,ID,2022-09-23 15:58:09,-3.8004,102.2655,74.46,90,99,3.87,overcast clouds
224,Wajir,KE,2022-09-23 15:58:09,1.7471,40.0573,91.36,27,20,6.91,few clouds
225,Menongue,AO,2022-09-23 15:58:10,-14.6585,17.691,91.65,10,9,6.51,clear sky
226,Victoria,HK,2022-09-23 15:55:35,22.2855,114.1577,81.32,89,29,11.01,scattered clouds
227,Bukachacha,RU,2022-09-23 15:58:10,52.9833,116.9167,45.95,89,100,2.04,overcast clouds
228,Lishui,CN,2022-09-23 15:58:10,28.4604,119.9103,67.53,88,61,3.71,broken clouds
229,Nancha,CN,2022-09-23 15:58:11,47.1333,129.2667,53.06,97,100,3.36,overcast clouds
230,Geraldton,AU,2022-09-23 15:55:13,-28.7667,114.6,50.41,87,75,3.44,broken clouds
231,Waipawa,NZ,2022-09-23 15:59:11,-41.4122,175.5153,51.76,99,100,3.67,overcast clouds
232,Hilo,US,2022-09-23 15:59:11,19.7297,-155.09,78.28,84,74,5.01,broken clouds
233,Bagdarin,RU,2022-09-23 15:59:12,54.4333,113.6,42.26,81,53,7.78,broken clouds
234,Burnie,AU,2022-09-23 15:59:12,-41.0667,145.9167,49.95,72,100,9.84,light rain
235,Norman Wells,CA,2022-09-23 15:59:12,65.282,-126.8329,39.24,81,100,20.71,overcast clouds
236,Myre,NO,2022-09-23 15:59:13,69.1036,15.9492,53.55,85,100,11.14,overcast clouds
237,Krasnoselkup,RU,2022-09-23 15:59:13,65.7,82.4667,34.0,93,90,10.67,overcast clouds
238,Uspenka,UA,2022-09-23 15:59:13,48.3903,39.1619,51.48,88,100,12.44,overcast clouds
239,Carnarvon,AU,2022-09-23 15:59:14,-24.8667,113.6333,65.97,73,0,21.45,clear sky
240,Arman,RU,2022-09-23 15:59:14,59.7,150.1667,37.71,69,14,3.36,few clouds
241,Izhma,RU,2022-09-23 15:59:15,65.0083,53.9113,37.9,97,100,6.76,overcast clouds
242,Zig,US,2022-09-23 15:59:15,40.127,-92.7663,54.37,82,100,3.0,overcast clouds
243,Solenzo,BF,2022-09-23 15:59:15,12.1833,-4.0833,88.41,56,51,4.81,broken clouds
244,Erenhot,CN,2022-09-23 15:59:16,43.6475,111.9767,55.09,16,0,9.69,clear sky
245,Qaanaaq,GL,2022-09-23 15:59:16,77.484,-69.3632,21.81,83,92,7.14,overcast clouds
246,Havre-Saint-Pierre,CA,2022-09-23 15:59:17,50.2334,-63.5986,61.16,72,40,11.5,scattered clouds
247,Isangel,VU,2022-09-23 15:59:17,-19.55,169.2667,74.17,90,18,5.39,few clouds
248,Vila Franca Do Campo,PT,2022-09-23 15:59:17,37.7167,-25.4333,79.2,84,60,9.55,light rain
249,Keetmanshoop,NA,2022-09-23 15:59:18,-26.5833,18.1333,81.09,6,0,9.06,clear sky
250,Alice Springs,AU,2022-09-23 15:59:18,-23.7,133.8833,63.95,29,0,8.05,clear sky
251,Korla,CN,2022-09-23 15:59:18,41.7597,86.1469,74.55,18,37,4.68,scattered clouds
252,Karla,EE,2022-09-23 15:59:19,59.3723,24.9275,53.56,66,0,4.61,clear sky
253,Severnyy,RU,2022-09-23 15:59:19,50.677,36.5532,46.44,93,0,4.47,clear sky
254,Manakara,MG,2022-09-23 15:59:19,-22.1333,48.0167,68.41,82,0,6.44,clear sky
255,Torbay,CA,2022-09-23 15:59:19,47.6666,-52.7314,73.27,81,75,17.27,broken clouds
256,Poum,NC,2022-09-23 15:59:20,-20.2333,164.0167,74.86,76,9,10.8,clear sky
257,Aras,ES,2022-09-23 15:59:20,42.5617,-2.356,70.21,56,20,3.44,few clouds
258,Banda Aceh,ID,2022-09-23 15:59:20,5.5577,95.3222,79.05,81,100,7.54,overcast clouds
259,Emerald,AU,2022-09-23 15:56:10,-23.5333,148.1667,62.35,63,0,8.39,clear sky
260,San Policarpo,PH,2022-09-23 15:59:21,12.1791,125.5072,77.36,90,98,10.49,overcast clouds
261,Kirakira,SB,2022-09-23 15:59:21,-10.4544,161.9205,79.54,85,31,4.99,scattered clouds
262,Tombouctou,ML,2022-09-23 15:59:21,20.0,-3.0,104.52,14,11,7.81,few clouds
263,Verkhoyansk,RU,2022-09-23 15:59:22,67.5447,133.385,29.5,80,98,2.98,overcast clouds
264,Comodoro Rivadavia,AR,2022-09-23 15:59:22,-45.8667,-67.5,55.26,41,0,16.11,clear sky
265,Igaci,BR,2022-09-23 15:59:22,-9.5369,-36.6336,87.12,51,0,8.68,clear sky
266,Panacan,PH,2022-09-23 15:59:22,9.2463,118.4082,80.22,80,99,5.1,light rain
267,Nusaybin,TR,2022-09-23 15:59:23,37.0778,41.2178,78.3,34,0,6.78,clear sky
268,Aswan,EG,2022-09-23 15:59:23,24.0934,32.907,103.3,11,0,9.22,clear sky
269,Nanortalik,GL,2022-09-23 15:59:24,60.1432,-45.2371,48.06,97,100,13.6,moderate rain
270,Ribeira Grande,PT,2022-09-23 15:59:24,38.5167,-28.7,75.6,78,40,26.46,scattered clouds
271,Baracoa,CU,2022-09-23 15:59:26,20.3467,-74.4958,87.39,61,47,4.43,scattered clouds
272,Half Moon Bay,US,2022-09-23 15:59:26,37.4636,-122.4286,70.88,80,0,1.97,clear sky
273,Cuamba,MZ,2022-09-23 15:59:27,-14.8031,36.5372,82.22,40,9,12.91,clear sky
274,Longyearbyen,SJ,2022-09-23 15:59:27,78.2186,15.6401,44.44,76,75,17.27,broken clouds
275,Nacozari,MX,2022-09-23 15:59:27,25.3366,-108.2574,79.11,78,21,3.0,few clouds
276,Huambo,AO,2022-09-23 15:59:28,-12.7761,15.7392,78.12,30,75,3.67,broken clouds
277,Qasigiannguit,GL,2022-09-23 16:00:28,68.8193,-51.1922,35.91,100,100,6.33,light rain
278,Te Anau,NZ,2022-09-23 16:00:29,-45.4167,167.7167,43.14,95,51,0.92,broken clouds
279,Farafangana,MG,2022-09-23 16:00:30,-22.8167,47.8333,69.37,79,0,7.61,clear sky
280,Hofn,IS,2022-09-23 16:00:30,64.2539,-15.2082,50.02,76,0,10.36,clear sky
281,Kawhia,NZ,2022-09-23 16:00:31,-38.0651,174.8183,50.07,93,22,2.66,few clouds
282,Mar Del Plata,AR,2022-09-23 16:00:09,-38.0023,-57.5575,56.95,80,2,4.0,clear sky
283,Coquimbo,CL,2022-09-23 16:00:31,-29.9533,-71.3436,60.31,67,46,5.84,scattered clouds
284,De-Kastri,RU,2022-09-23 16:00:32,51.4667,140.7833,53.87,96,47,5.32,scattered clouds
285,Coihaique,CL,2022-09-23 16:00:32,-45.5752,-72.0662,45.99,61,37,9.8,scattered clouds
286,San Patricio,US,2022-09-23 16:00:32,28.017,-97.5169,88.18,51,0,8.5,clear sky
287,Mujiayingzi,CN,2022-09-23 16:00:33,42.1167,118.7833,47.8,28,0,7.18,clear sky
288,Goderich,CA,2022-09-23 16:00:33,43.7501,-81.7165,54.91,57,17,12.75,few clouds
289,Fort-Shevchenko,KZ,2022-09-23 16:00:34,44.5086,50.263,71.76,75,0,11.21,clear sky
290,Aksu,CN,2022-09-23 16:00:34,41.1231,80.2644,73.74,26,1,9.15,clear sky
291,Severomuysk,RU,2022-09-23 16:00:34,56.1481,113.4267,29.48,97,93,4.5,light snow
292,Badnawar,IN,2022-09-23 16:00:35,23.0167,75.2167,71.15,80,50,12.84,scattered clouds
293,Christchurch,NZ,2022-09-23 15:57:35,-43.5333,172.6333,49.95,88,100,1.14,overcast clouds
294,Provideniya,RU,2022-09-23 16:00:35,64.3833,-173.3,41.22,91,95,10.63,overcast clouds
295,Port Blair,IN,2022-09-23 16:00:37,11.6667,92.75,80.31,79,41,8.43,scattered clouds
296,Rajanpur,PK,2022-09-23 16:00:37,29.1035,70.325,91.49,26,1,7.14,clear sky
297,Tuatapere,NZ,2022-09-23 16:00:38,-46.1333,167.6833,44.76,94,84,1.57,broken clouds
298,Muros,ES,2022-09-23 16:00:38,42.7762,-9.0603,73.09,64,51,15.3,broken clouds
299,Saint Anthony,US,2022-09-23 16:00:13,45.0205,-93.218,55.83,83,100,8.05,light rain
300,Marrakesh,MA,2022-09-23 15:59:52,31.6315,-8.0083,89.67,37,20,6.91,few clouds
301,Lar,IN,2022-09-23 16:00:39,26.2039,83.9717,83.53,77,100,6.69,overcast clouds
302,Alofi,NU,2022-09-23 16:00:40,-19.0595,-169.9187,76.39,77,27,23.17,scattered clouds
303,Lorengau,PG,2022-09-23 16:00:40,-2.0226,147.2712,80.92,74,64,3.24,broken clouds
304,Ilhabela,BR,2022-09-23 15:57:00,-23.7781,-45.3581,68.54,65,59,13.6,broken clouds
305,Mittagong,AU,2022-09-23 16:00:41,-34.45,150.45,56.19,99,90,2.68,overcast clouds
306,Xam Nua,LA,2022-09-23 16:00:41,20.4197,104.0439,62.78,98,31,1.57,scattered clouds
307,Gamba,GA,2022-09-23 16:00:42,-2.65,10.0,77.32,83,100,9.82,overcast clouds
308,Shanghai,CN,2022-09-23 15:57:41,31.2222,121.4581,68.94,68,0,13.42,clear sky
309,Venice,US,2022-09-23 16:00:05,27.0998,-82.4543,91.06,71,0,6.91,clear sky
310,Ilulissat,GL,2022-09-23 16:00:43,69.2167,-51.1,34.41,99,100,6.15,light snow
311,Saryg-Sep,RU,2022-09-23 16:00:44,51.5,95.6,45.66,89,34,2.48,scattered clouds
312,Mitsamiouli,KM,2022-09-23 16:00:45,-11.3847,43.2844,77.09,82,19,5.1,few clouds
313,Padang,ID,2022-09-23 16:00:45,-0.9492,100.3543,77.25,85,48,2.93,scattered clouds
314,Atbasar,KZ,2022-09-23 16:00:46,51.8,68.3333,70.9,39,41,6.89,scattered clouds
315,Linhares,BR,2022-09-23 16:00:46,-19.3911,-40.0722,93.67,42,67,11.34,broken clouds
316,Sabancuy,MX,2022-09-23 16:00:47,18.9667,-91.1833,77.88,88,97,5.66,overcast clouds
317,Kavieng,PG,2022-09-23 16:00:47,-2.5744,150.7967,81.39,75,73,11.54,broken clouds
318,Farsund,NO,2022-09-23 16:00:48,58.0948,6.8047,60.94,100,8,15.97,clear sky
319,Sao Filipe,CV,2022-09-23 16:00:48,14.8961,-24.4956,79.83,79,11,10.67,few clouds
320,Muroto,JP,2022-09-23 16:00:49,33.2833,134.15,78.28,85,11,1.3,few clouds
321,Tayga,RU,2022-09-23 16:00:50,56.06,85.6197,47.32,60,97,6.26,overcast clouds
322,Mareeba,AU,2022-09-23 16:00:21,-17.0,145.4333,68.72,96,49,1.66,scattered clouds
323,Peniche,PT,2022-09-23 16:01:51,39.3558,-9.3811,73.08,75,63,16.6,broken clouds
324,Les Cayes,HT,2022-09-23 16:01:51,18.2,-73.75,90.36,55,48,5.59,scattered clouds
325,Farmington,US,2022-09-23 16:00:17,36.7281,-108.2187,68.77,75,0,5.01,clear sky
326,Talcahuano,CL,2022-09-23 16:01:51,-36.7167,-73.1167,55.24,81,91,8.86,overcast clouds
327,Linxia,CN,2022-09-23 16:01:52,35.6003,103.2064,51.48,65,21,2.89,few clouds
328,Bafoulabe,ML,2022-09-23 16:01:52,13.8065,-10.8321,87.37,67,100,3.11,light rain
329,Bantry,IE,2022-09-23 16:01:52,51.6833,-9.45,60.78,73,70,13.82,broken clouds
330,Sioux Lookout,CA,2022-09-23 16:01:52,50.1001,-91.917,50.79,55,97,8.01,overcast clouds
331,Warah,PK,2022-09-23 16:01:53,27.4481,67.7978,90.68,33,20,5.12,few clouds
332,Shimoda,JP,2022-09-23 16:01:53,34.6667,138.95,74.1,94,100,14.65,overcast clouds
333,Maceio,BR,2022-09-23 15:58:46,-9.6658,-35.7353,85.44,70,40,14.97,scattered clouds
334,Whitehorse,CA,2022-09-23 16:01:53,60.7161,-135.0538,42.82,61,100,18.01,overcast clouds
335,Praia,CV,2022-09-23 16:01:54,14.9215,-23.5087,88.34,58,75,9.22,broken clouds
336,Nador,MA,2022-09-23 16:01:54,35.174,-2.9287,77.25,73,40,6.91,scattered clouds
337,Ust-Ilimsk,RU,2022-09-23 16:01:54,58.0006,102.6619,35.85,86,56,9.13,broken clouds
338,Moerai,PF,2022-09-23 16:01:55,-22.4333,-151.3333,71.19,60,74,19.46,broken clouds
339,Kavaratti,IN,2022-09-23 16:01:55,10.5669,72.642,81.61,75,88,11.81,overcast clouds
340,Nongan,CN,2022-09-23 16:01:55,44.382,125.1685,50.0,87,100,15.17,overcast clouds
341,Fortuna,US,2022-09-23 16:01:56,40.5982,-124.1573,57.92,91,43,3.13,scattered clouds
342,Nome,US,2022-09-23 16:01:56,64.5011,-165.4064,42.17,97,100,6.78,overcast clouds
343,Frankfort,ZA,2022-09-23 16:01:57,-27.2667,28.4833,70.34,14,0,3.58,clear sky
344,Clyde River,CA,2022-09-23 16:01:57,70.4692,-68.5914,24.44,79,68,7.92,broken clouds
345,Kaele,CM,2022-09-23 16:01:57,10.1092,14.4508,80.94,77,88,7.38,overcast clouds
346,Pauini,BR,2022-09-23 16:01:58,-7.7136,-66.9764,93.36,44,81,3.33,broken clouds
347,Lusambo,CD,2022-09-23 15:59:13,-4.9667,23.45,80.38,59,98,2.01,overcast clouds
348,Odweyne,SO,2022-09-23 16:01:58,9.4092,45.064,80.94,44,100,16.08,overcast clouds
349,Saint-Pierre,RE,2022-09-23 16:00:21,-21.3393,55.4781,73.08,73,75,10.36,broken clouds
350,Sawakin,SD,2022-09-23 16:01:59,19.1059,37.3321,87.57,54,11,5.97,few clouds
351,Sungurlu,TR,2022-09-23 16:01:59,40.1675,34.3739,60.87,31,39,4.03,scattered clouds
352,Belmonte,BR,2022-09-23 16:01:59,-15.8631,-38.8828,82.31,71,40,14.47,scattered clouds
353,Bibiani,GH,2022-09-23 16:02:00,6.4635,-2.3194,79.92,91,100,3.04,moderate rain
354,Tefe,BR,2022-09-23 16:02:00,-3.3542,-64.7114,94.1,42,66,4.45,broken clouds
355,Nokaneng,BW,2022-09-23 16:02:00,-19.6667,22.2667,87.93,7,0,5.17,clear sky
356,Chunoyar,RU,2022-09-23 16:02:01,57.4467,97.3217,40.87,82,100,6.17,overcast clouds
357,Khazar,RU,2022-09-23 16:02:02,41.9974,48.3332,72.79,72,0,13.73,clear sky
358,Anloga,GH,2022-09-23 16:02:02,5.7947,0.8973,79.65,80,73,12.57,broken clouds
359,Santa Maria,BR,2022-09-23 16:02:03,-29.6842,-53.8069,62.92,46,0,8.28,clear sky
360,Jabinyanah,TN,2022-09-23 16:02:03,35.035,10.9081,77.16,53,17,14.63,few clouds
361,Rio Gallegos,AR,2022-09-23 16:02:01,-51.6226,-69.2181,54.16,35,79,11.16,broken clouds
362,Daitari,IN,2022-09-23 16:02:04,21.1,85.75,75.16,89,64,1.03,broken clouds
363,Klaksvik,FO,2022-09-23 16:02:04,62.2266,-6.589,52.72,79,15,13.58,few clouds
364,Kununurra,AU,2022-09-23 16:01:10,-15.7667,128.7333,78.78,69,40,5.75,scattered clouds
365,Praya,CV,2022-09-23 16:02:05,14.9215,-23.5087,88.34,58,75,9.22,broken clouds
366,Itarare,BR,2022-09-23 16:02:05,-24.1125,-49.3317,66.07,37,2,6.58,clear sky
367,Beringovskiy,RU,2022-09-23 16:02:05,63.05,179.3167,40.03,93,100,10.96,light rain
368,Tadine,NC,2022-09-23 16:02:06,-21.55,167.8833,71.92,84,96,7.81,overcast clouds
369,Las Varas,MX,2022-09-23 16:03:07,21.1667,-105.1667,89.08,71,12,1.32,few clouds
370,Zhuhai,CN,2022-09-23 16:03:07,22.2769,113.5678,84.85,83,40,20.71,scattered clouds
371,Samarinda,ID,2022-09-23 16:03:07,-0.5,117.15,74.19,97,97,0.47,overcast clouds
372,Foam Lake,CA,2022-09-23 16:00:11,51.65,-103.5343,47.14,84,89,6.62,overcast clouds
373,Guerrero Negro,MX,2022-09-23 16:03:08,27.9769,-114.0611,75.96,66,3,7.83,clear sky
374,Santarem,BR,2022-09-23 15:58:14,-2.4431,-54.7083,87.93,70,20,14.97,few clouds
375,San Cristobal,VE,2022-09-23 16:03:08,7.7669,-72.225,78.04,56,96,4.56,overcast clouds
376,Wairoa,NZ,2022-09-23 16:03:08,-39.0333,177.3667,51.55,99,17,6.35,few clouds
377,Taicheng,CN,2022-09-23 16:03:09,38.731,113.228,45.66,33,7,4.09,clear sky
378,Ouango,CF,2022-09-23 16:03:09,4.3133,22.5552,72.81,93,87,2.89,light rain
379,Ambon,ID,2022-09-23 16:03:09,-3.6954,128.1814,77.14,88,20,6.91,few clouds
380,Florida,US,2022-09-23 16:01:01,28.7505,-82.5001,91.9,73,40,8.05,scattered clouds
381,Orange Walk,BZ,2022-09-23 16:03:10,17.8333,-88.8333,83.14,77,88,3.31,overcast clouds
382,Mikhaylovka,RU,2022-09-23 16:03:10,50.06,43.2379,61.79,76,100,11.77,overcast clouds
383,Portland,US,2022-09-23 16:02:04,45.5234,-122.6762,60.35,85,20,4.61,few clouds
384,Urucara,BR,2022-09-23 16:03:11,-2.5364,-57.76,103.3,22,3,4.88,clear sky
385,Granadilla De Abona,ES,2022-09-23 16:03:11,28.1188,-16.576,75.78,70,20,25.32,few clouds
386,Talaya,RU,2022-09-23 16:03:11,61.3833,152.75,18.88,90,16,1.16,few clouds
387,Port Hedland,AU,2022-09-23 16:03:12,-20.3167,118.5667,75.25,69,0,10.36,clear sky
388,Palmer,US,2022-09-23 16:03:12,42.1584,-72.3287,58.14,57,40,19.57,scattered clouds
389,Starodub,RU,2022-09-23 16:03:13,52.5844,32.7633,48.88,84,100,6.4,overcast clouds
390,Iranshahr,IR,2022-09-23 16:03:13,27.2025,60.6848,92.14,7,0,14.83,clear sky
391,Tomatlan,MX,2022-09-23 16:03:13,19.9333,-105.25,82.42,81,12,0.89,few clouds
392,Takoradi,GH,2022-09-23 16:03:14,4.8845,-1.7554,78.78,82,92,11.27,light rain
393,Mikasa,JP,2022-09-23 16:03:14,43.251,141.9043,61.74,97,100,2.84,light rain
394,Flinders,AU,2022-09-23 16:03:15,-34.5833,150.8552,63.37,90,87,7.0,overcast clouds
395,Porirua,NZ,2022-09-23 16:03:15,-41.1333,174.85,53.02,96,100,10.85,overcast clouds
396,Hervey Bay,AU,2022-09-23 16:03:15,-25.2986,152.8535,65.64,68,0,6.89,clear sky
397,Lazaro Cardenas,MX,2022-09-23 16:03:16,17.9583,-102.2,82.38,74,8,1.86,clear sky
398,Mudgee,AU,2022-09-23 16:03:16,-32.5943,149.5871,56.62,97,51,2.26,broken clouds
399,Komsomolskiy,UZ,2022-09-23 16:03:16,40.4272,71.7189,74.12,35,0,6.91,clear sky
400,Atherton,GB,2022-09-23 16:03:13,53.5237,-2.4935,63.75,70,28,1.99,scattered clouds
401,Bozoum,CF,2022-09-23 16:03:17,6.3193,16.3799,70.41,94,100,3.49,overcast clouds
402,Champasak,LA,2022-09-23 16:03:17,14.75,106.0,72.93,100,100,2.01,overcast clouds
403,Kitob,UZ,2022-09-23 16:03:18,39.0843,66.8332,74.73,18,0,3.42,clear sky
404,Riyadh,SA,2022-09-23 16:00:02,24.6877,46.7219,96.26,11,9,4.97,clear sky
405,Kayerkan,RU,2022-09-23 16:03:18,69.3497,87.7602,29.86,89,83,14.56,broken clouds
406,Nogliki,RU,2022-09-23 16:03:18,51.8333,143.1667,48.63,90,41,4.54,scattered clouds
407,Pisco,PE,2022-09-23 16:03:19,-13.7,-76.2167,61.02,79,69,7.34,broken clouds
408,Labuan,MY,2022-09-23 16:03:19,5.2767,115.2417,82.47,73,100,7.58,overcast clouds
409,Verkhnyaya Pyshma,RU,2022-09-23 16:03:20,56.9667,60.5808,54.84,48,100,3.71,overcast clouds
410,Belaya Gora,RU,2022-09-23 16:03:20,68.5333,146.4167,32.7,99,100,3.38,overcast clouds
411,Koslan,RU,2022-09-23 16:03:20,63.4564,48.8989,40.98,83,42,4.99,scattered clouds
412,Ossora,RU,2022-09-23 16:03:21,59.2353,163.0719,40.82,63,2,2.82,clear sky
413,Sao Miguel Do Iguacu,BR,2022-09-23 16:04:21,-25.3481,-54.2378,63.48,39,2,6.13,clear sky
414,Mizdah,LY,2022-09-23 16:04:21,31.4451,12.9801,79.38,46,3,16.55,clear sky
415,Newport,GB,2022-09-23 16:04:22,51.5877,-2.9984,70.12,58,25,10.02,scattered clouds
416,Metro,ID,2022-09-23 16:04:22,-5.1131,105.3067,76.03,89,85,5.97,light rain
417,Bambous Virieux,MU,2022-09-23 16:04:22,-20.3428,57.7575,72.21,78,40,16.11,light rain
418,Bathsheba,BB,2022-09-23 16:04:23,13.2167,-59.5167,84.27,73,29,13.2,scattered clouds
419,Great Falls,US,2022-09-23 16:03:45,47.5002,-111.3008,62.67,44,0,24.16,clear sky
420,Mount Gambier,AU,2022-09-23 16:04:23,-37.8333,140.7667,43.02,84,37,6.38,scattered clouds
421,Sumkino,RU,2022-09-23 16:02:09,58.1108,68.3244,51.01,80,100,6.33,overcast clouds
422,Hauterive,FR,2022-09-23 16:04:24,46.0901,3.4459,74.16,44,100,2.82,overcast clouds
423,Igarka,RU,2022-09-23 16:04:24,67.4667,86.5833,31.73,88,100,11.83,overcast clouds
424,San Andres,CO,2022-09-23 16:03:40,12.5847,-81.7006,83.1,70,88,2.3,overcast clouds
425,Yar-Sale,RU,2022-09-23 16:04:24,66.8333,70.8333,34.59,96,97,8.97,overcast clouds
426,La Libertad,EC,2022-09-23 16:03:43,-2.2333,-80.9,71.24,79,99,9.6,overcast clouds
427,Fort Thomas,US,2022-09-23 16:04:25,39.0751,-84.4472,63.01,60,0,6.91,clear sky
428,Beeville,US,2022-09-23 16:03:15,28.4008,-97.7483,87.62,48,40,0.0,scattered clouds
429,Alekseyevka,RU,2022-09-23 16:04:25,50.6309,38.6903,49.39,95,100,10.58,light rain
430,Kinel,RU,2022-09-23 16:04:25,53.2333,50.65,72.64,25,99,8.99,overcast clouds
431,Camacha,PT,2022-09-23 16:04:26,33.0833,-16.3333,72.82,69,75,12.66,broken clouds
432,Saint-Augustin,CA,2022-09-23 16:04:26,51.226,-58.6502,61.09,94,100,23.35,overcast clouds
433,Koubia,GN,2022-09-23 16:04:26,11.5833,-11.9,78.31,77,91,1.74,light rain
434,Douglas,US,2022-09-23 16:04:27,41.3,-96.167,58.93,79,100,14.97,overcast clouds
435,Sitka,US,2022-09-23 16:04:28,57.0531,-135.33,55.29,88,100,17.27,moderate rain
436,Warrnambool,AU,2022-09-23 16:04:28,-38.3833,142.4833,50.61,62,87,15.17,overcast clouds
437,Awjilah,LY,2022-09-23 16:04:28,29.1081,21.2869,100.26,15,12,10.0,few clouds
438,Cayenne,GF,2022-09-23 16:04:29,4.9333,-52.3333,91.44,55,75,9.22,broken clouds
439,Kaohsiung,TW,2022-09-23 16:04:29,22.6163,120.3133,80.55,83,75,5.75,broken clouds
440,Surman,LY,2022-09-23 16:04:29,32.7567,12.5716,76.66,67,33,13.8,light rain
441,Tarko-Sale,RU,2022-09-23 16:04:30,64.9225,77.785,34.39,92,65,10.42,broken clouds
442,Lakes Entrance,AU,2022-09-23 16:04:30,-37.8811,147.981,52.16,96,100,12.01,moderate rain
443,Muzhi,RU,2022-09-23 16:04:30,65.3667,64.6667,36.19,70,4,12.41,clear sky
444,Shingu,JP,2022-09-23 16:04:31,33.7333,135.9833,71.46,91,41,6.6,scattered clouds
445,Sorland,NO,2022-09-23 16:04:31,67.667,12.6934,53.46,91,94,9.62,overcast clouds
446,Petatlan,MX,2022-09-23 16:04:31,17.5167,-101.2667,85.8,69,22,2.17,few clouds
447,Pascagoula,US,2022-09-23 16:02:24,30.3658,-88.5561,84.25,76,39,8.55,scattered clouds
448,Jonava,LT,2022-09-23 16:04:32,55.0833,24.2833,52.74,80,0,2.3,clear sky
449,Rawatbhata,IN,2022-09-23 16:04:32,24.9333,75.5833,77.56,79,100,15.66,heavy intensity rain
450,Vila Do Maio,CV,2022-09-23 16:04:32,15.1333,-23.2167,88.59,82,83,17.43,broken clouds
451,Maniitsoq,GL,2022-09-23 16:04:33,65.4167,-52.9,42.69,96,100,39.1,moderate rain
452,Scarborough,GB,2022-09-23 16:00:55,54.2797,-0.4044,62.65,77,8,1.99,clear sky
453,Kosino,RU,2022-09-23 16:04:33,58.4127,51.2782,56.25,79,94,6.71,overcast clouds
454,Tautira,PF,2022-09-23 16:04:33,-17.7333,-149.15,76.91,75,40,20.24,scattered clouds
455,Tevriz,RU,2022-09-23 16:04:34,57.509,72.4042,47.89,77,99,3.22,overcast clouds
456,Beloha,MG,2022-09-23 16:04:34,-25.1667,45.05,71.98,67,31,11.88,scattered clouds
457,Palaikastron,GR,2022-09-23 16:04:35,35.2,26.25,64.42,66,100,13.73,overcast clouds
458,Fukue,JP,2022-09-23 16:04:36,32.6881,128.8419,72.72,66,100,19.26,overcast clouds
459,Qostanay,KZ,2022-09-23 16:00:07,53.1667,63.5833,68.29,42,0,4.47,clear sky
460,Hamilton,US,2022-09-23 16:04:34,39.1834,-84.5333,63.99,60,0,6.91,clear sky
461,Vega De Alatorre,MX,2022-09-23 16:04:36,20.0333,-96.6333,83.08,65,17,13.29,few clouds
462,Cowra,AU,2022-09-23 16:05:37,-33.8333,148.6833,52.56,98,88,4.14,overcast clouds
463,Salina Cruz,MX,2022-09-23 16:01:12,16.1667,-95.2,83.01,65,99,11.97,overcast clouds
464,Lagos,NG,2022-09-23 16:04:38,6.5833,3.75,80.44,80,100,6.22,overcast clouds
465,Gwembe,ZM,2022-09-23 16:05:37,-16.4975,27.6069,80.47,23,1,5.53,clear sky
466,Aloleng,PH,2022-09-23 16:05:38,16.1307,119.7824,81.03,73,65,5.93,broken clouds
467,Madhupur,IN,2022-09-23 16:05:38,24.25,86.65,79.43,85,100,8.55,overcast clouds
468,Elko,US,2022-09-23 16:05:38,41.0002,-115.5012,52.65,51,0,7.0,clear sky
469,Ratlam,IN,2022-09-23 16:05:39,23.3167,75.0667,70.57,83,44,12.91,scattered clouds
470,Coahuayana,MX,2022-09-23 16:05:39,18.7333,-103.6833,84.9,71,23,0.25,few clouds
471,Vargem Alta,BR,2022-09-23 16:05:39,-20.6714,-41.0069,77.13,69,100,7.99,overcast clouds
472,North Platte,US,2022-09-23 16:05:39,41.1239,-100.7654,62.49,76,75,10.36,broken clouds
473,Dickinson,US,2022-09-23 16:03:00,29.4608,-95.0513,93.07,62,0,1.99,clear sky
474,Katsuura,JP,2022-09-23 16:05:40,35.1333,140.3,78.26,89,100,19.22,overcast clouds
475,Millau,FR,2022-09-23 16:05:40,44.0833,2.9167,69.93,67,100,9.26,overcast clouds
476,Tarnogskiy Gorodok,RU,2022-09-23 16:05:40,60.4997,43.5761,47.75,74,100,9.57,overcast clouds
477,Green River,US,2022-09-23 16:05:41,41.5286,-109.4662,59.99,42,0,8.01,clear sky
478,Burgeo,CA,2022-09-23 16:05:41,47.6167,-57.6152,62.26,97,97,22.1,moderate rain
479,Kulachi,PK,2022-09-23 16:05:42,31.9286,70.4592,95.2,23,0,7.47,clear sky
480,Jalu,LY,2022-09-23 16:05:42,29.0331,21.5482,99.68,15,6,9.06,clear sky
481,Nemuro,JP,2022-09-23 16:05:42,43.3236,145.575,64.33,99,100,14.29,overcast clouds
482,Haradok,BY,2022-09-23 16:05:42,55.4624,29.9816,48.31,96,53,5.7,broken clouds
483,Casa Nova,BR,2022-09-23 16:05:44,-9.4167,-41.1333,90.59,36,1,3.87,clear sky
484,Diamantino,BR,2022-09-23 16:05:44,-14.4086,-56.4461,84.99,45,100,6.44,overcast clouds
485,Aquiraz,BR,2022-09-23 16:05:45,-3.9014,-38.3911,87.89,60,20,12.64,few clouds
486,Sedhiou,SN,2022-09-23 16:05:46,12.7081,-15.5569,85.14,75,79,7.14,light rain
487,Katherine,AU,2022-09-23 16:05:46,-14.4667,132.2667,86.32,37,94,11.5,overcast clouds
488,Faya,SA,2022-09-23 16:05:46,18.3851,42.4509,66.72,50,84,1.14,broken clouds
489,Ozimek,PL,2022-09-23 16:05:47,50.6794,18.2137,58.35,57,80,2.26,broken clouds
490,Berdigestyakh,RU,2022-09-23 16:05:47,62.0989,126.6992,31.21,79,99,9.8,overcast clouds
491,Aneho,TG,2022-09-23 16:05:47,6.2333,1.6,80.1,78,92,10.58,overcast clouds
492,Kloulklubed,PW,2022-09-23 16:05:49,7.0419,134.2556,79.3,75,95,12.66,overcast clouds
493,Natchez,US,2022-09-23 16:05:49,31.5604,-91.4032,80.04,57,0,10.36,clear sky
494,Orangeburg,US,2022-09-23 16:05:49,33.4918,-80.8557,71.92,45,0,10.36,clear sky
495,Abu Zabad,SD,2022-09-23 16:05:49,12.35,29.25,79.92,68,69,13.18,broken clouds
496,Sikonge,TZ,2022-09-23 16:05:50,-5.6333,32.7667,85.1,21,95,3.44,overcast clouds
497,Hohhot,CN,2022-09-23 16:05:50,40.8106,111.6522,46.63,25,0,1.92,clear sky
498,Portobelo,PA,2022-09-23 16:05:50,9.55,-79.65,86.11,70,69,2.46,broken clouds
499,Kulhudhuffushi,MV,2022-09-23 16:05:51,6.6221,73.07,82.51,71,63,9.35,broken clouds
500,Bereda,ES,2022-09-23 16:05:51,43.2686,-7.5406,70.41,75,85,4.99,overcast clouds
501,Sechura,PE,2022-09-23 16:05:52,-5.5569,-80.8222,73.09,58,51,7.9,broken clouds
502,Shenjiamen,CN,2022-09-23 16:05:52,29.9576,122.298,70.16,66,87,18.43,overcast clouds
503,Kupang,ID,2022-09-23 16:05:53,-10.1667,123.5833,78.84,79,66,8.5,broken clouds
504,Noyabrsk,RU,2022-09-23 16:05:53,63.1994,75.4507,39.0,66,100,11.21,overcast clouds
505,Polyarnyy,RU,2022-09-23 16:05:54,69.1989,33.4478,47.43,89,100,10.47,overcast clouds
506,Udachnyy,RU,2022-09-23 16:05:54,66.4167,112.4,20.55,88,88,10.16,overcast clouds
507,Tilichiki,RU,2022-09-23 16:06:54,60.4667,166.1,34.63,77,6,7.94,clear sky
508,Cap-Aux-Meules,CA,2022-09-23 16:06:55,47.3821,-61.8597,55.45,94,100,8.05,light intensity shower rain
509,Celestun,MX,2022-09-23 16:06:55,20.8667,-90.4,83.98,68,54,4.83,broken clouds
510,Saurimo,AO,2022-09-23 16:06:55,-9.6608,20.3916,82.71,38,50,9.04,scattered clouds
511,Kudahuvadhoo,MV,2022-09-23 16:06:56,2.6708,72.8944,83.14,70,28,7.58,scattered clouds
512,Buraydah,SA,2022-09-23 16:06:56,26.326,43.975,91.4,15,0,11.32,clear sky
513,Liuli,TZ,2022-09-23 16:06:57,-11.0833,34.6333,78.91,53,13,8.25,few clouds
514,Rocha,UY,2022-09-23 16:02:26,-34.4833,-54.3333,60.98,41,0,8.72,clear sky
515,Matara,LK,2022-09-23 16:06:57,5.9485,80.5353,78.51,84,8,9.8,clear sky
516,Taman,RU,2022-09-23 16:06:58,45.2117,36.7161,63.34,46,31,7.65,scattered clouds
517,Tecoanapa,MX,2022-09-23 16:06:59,16.5167,-98.75,82.96,67,97,0.69,overcast clouds
518,Cervo,ES,2022-09-23 16:06:59,43.6702,-7.4101,68.97,75,53,9.15,broken clouds
519,Derzhavinsk,KZ,2022-09-23 16:07:00,51.1,66.3167,73.35,33,7,10.04,clear sky
520,Mumford,GH,2022-09-23 16:07:00,5.2618,-0.759,78.17,83,69,12.37,broken clouds
521,Torata,PE,2022-09-23 16:07:00,-17.0769,-70.8433,70.25,13,75,9.06,broken clouds
522,Luan,CH,2022-09-23 16:07:00,46.3592,6.9759,59.86,71,100,3.02,overcast clouds
523,Daru,PG,2022-09-23 16:07:01,-9.0763,143.2092,77.68,86,56,8.19,broken clouds
524,Henties Bay,NA,2022-09-23 16:07:01,-22.116,14.2845,58.48,76,0,11.43,clear sky
525,Sabang,ID,2022-09-23 16:07:01,5.8933,95.3214,81.43,78,100,12.53,overcast clouds
526,Huangzhou,CN,2022-09-23 16:07:02,30.45,114.8,73.6,49,100,4.18,overcast clouds
527,Nizhniy Tsasuchey,RU,2022-09-23 16:07:02,50.5167,115.1333,52.43,60,100,7.61,overcast clouds
528,Bonthe,SL,2022-09-23 16:07:02,7.5264,-12.505,79.63,81,98,7.29,moderate rain
529,Muhos,FI,2022-09-23 16:07:04,64.808,25.9931,52.9,75,73,5.84,broken clouds
530,Tshikapa,CD,2022-09-23 16:07:04,-6.4167,20.8,77.52,79,91,3.38,moderate rain
531,Podosinovets,RU,2022-09-23 16:07:05,60.2776,47.0659,44.85,96,100,9.86,overcast clouds
532,Dumas,US,2022-09-23 16:07:05,35.8656,-101.9732,75.54,43,0,19.57,clear sky
533,Southbridge,US,2022-09-23 16:07:05,42.0751,-72.0334,57.85,68,65,14.0,broken clouds
534,Sokoni,TZ,2022-09-23 16:07:06,-6.4333,39.55,77.0,83,27,16.33,scattered clouds
535,Mnogovershinnyy,RU,2022-09-23 16:07:06,53.9353,139.9242,43.9,91,73,1.74,broken clouds
536,Sambava,MG,2022-09-23 16:07:07,-14.2667,50.1667,70.43,96,100,12.59,moderate rain
537,Dong Xoai,VN,2022-09-23 16:07:07,11.5333,106.9167,75.25,92,99,4.29,light rain
538,Aykhal,RU,2022-09-23 16:07:07,66.0,111.5,18.95,91,50,9.57,scattered clouds
539,Elektrenai,LT,2022-09-23 16:07:08,54.7667,24.6333,52.83,73,81,5.17,broken clouds
540,Galveston,US,2022-09-23 16:07:08,29.3669,-94.9669,92.03,65,40,8.05,scattered clouds
541,Chubbuck,US,2022-09-23 16:07:08,42.9208,-112.4661,61.99,52,0,10.36,clear sky
542,Mayya,RU,2022-09-23 16:07:09,61.7333,130.2811,33.12,84,97,9.28,overcast clouds
543,Wasilla,US,2022-09-23 16:07:09,61.5814,-149.4394,42.35,95,100,4.61,light rain
544,Newtonmore,GB,2022-09-23 16:07:09,57.066,-4.1192,53.82,59,93,7.0,overcast clouds
545,Kurilsk,RU,2022-09-23 16:07:10,45.2333,147.8833,58.64,95,100,10.4,moderate rain
546,Mathathane,BW,2022-09-23 16:07:10,-22.2687,28.7495,85.69,30,0,7.07,clear sky
547,Iwanai,JP,2022-09-23 16:07:11,42.9744,140.5089,65.77,98,100,5.91,overcast clouds
548,Imbituba,BR,2022-09-23 16:03:25,-28.24,-48.6703,70.86,38,0,15.32,clear sky
549,Adamovka,RU,2022-09-23 16:07:12,51.5223,59.9396,71.1,24,7,9.26,clear sky
550,Asau,RO,2022-09-23 16:07:12,46.4333,26.4,49.28,87,100,0.29,overcast clouds
551,Arti,RU,2022-09-23 16:07:13,56.4234,58.5328,61.95,44,99,3.0,overcast clouds
552,Jaguaribe,BR,2022-09-23 16:07:13,-5.8906,-38.6219,97.75,26,0,5.75,clear sky
553,Flin Flon,CA,2022-09-23 16:07:14,54.7682,-101.865,55.42,56,73,9.17,broken clouds
554,Luena,AO,2022-09-23 16:08:14,-11.7833,19.9167,89.55,15,7,6.69,clear sky
555,Tsumeb,NA,2022-09-23 16:08:14,-19.2333,17.7167,89.22,6,0,6.85,clear sky
556,Hammerfest,NO,2022-09-23 16:08:15,70.6634,23.6821,52.25,71,0,8.05,clear sky
557,Otradnoye,RU,2022-09-23 16:08:15,59.7775,30.8181,51.85,91,13,4.79,few clouds
558,Sudzha,RU,2022-09-23 16:08:15,51.1976,35.2726,48.45,93,100,7.36,overcast clouds
559,Chokwe,MZ,2022-09-23 16:08:16,-24.5333,32.9833,85.14,38,0,9.1,clear sky
560,Bakel,SN,2022-09-23 16:08:16,14.905,-12.4568,91.36,52,70,5.12,light rain
561,Pau Brasil,BR,2022-09-23 16:08:16,-15.4642,-39.6511,94.32,38,37,2.46,scattered clouds
562,Zhangye,CN,2022-09-23 16:08:17,38.9342,100.4517,61.25,29,100,4.16,overcast clouds
563,Turbat,PK,2022-09-23 16:08:17,26.0023,63.044,85.84,58,27,13.02,scattered clouds
564,Nouakchott,MR,2022-09-23 16:08:17,18.0858,-15.9785,94.93,65,100,14.34,overcast clouds
565,Leshukonskoye,RU,2022-09-23 16:08:18,64.8989,45.7622,42.87,86,100,3.51,overcast clouds
566,Rodniki,RU,2022-09-23 16:08:18,57.1051,41.7305,54.25,77,100,8.41,overcast clouds
567,Mehamn,NO,2022-09-23 16:08:18,71.0357,27.8492,49.95,81,40,23.02,scattered clouds
568,Vardo,NO,2022-09-23 16:08:19,70.3705,31.1107,49.98,81,100,16.11,overcast clouds
569,Coari,BR,2022-09-23 16:08:19,-4.085,-63.1414,86.61,54,90,1.21,overcast clouds
570,Nanlong,CN,2022-09-23 16:08:20,31.3533,106.0631,62.13,94,100,4.23,moderate rain
571,Stornoway,GB,2022-09-23 16:08:21,58.2093,-6.3865,53.56,78,40,11.5,scattered clouds
572,Tateyama,JP,2022-09-23 16:08:21,34.9833,139.8667,78.1,89,100,20.51,overcast clouds
573,Dafeng,CN,2022-09-23 16:08:21,23.4517,108.5881,77.92,67,17,3.31,few clouds
574,Debre Tabor,ET,2022-09-23 16:08:22,11.85,38.0167,54.03,81,100,4.34,light rain
575,Axim,GH,2022-09-23 16:08:22,4.8699,-2.2405,79.29,78,93,10.18,overcast clouds
576,Roald,NO,2022-09-23 16:08:22,62.5833,6.1333,59.76,76,40,9.22,scattered clouds
577,Zlobin,HR,2022-09-23 16:08:23,45.2924,14.6541,60.1,49,20,6.91,few clouds
578,Giddalur,IN,2022-09-23 16:08:23,15.35,78.9167,79.75,52,61,1.88,broken clouds
579,San Quintin,MX,2022-09-23 16:08:23,30.4833,-115.95,73.65,71,60,5.95,broken clouds
580,Rio Cuarto,AR,2022-09-23 16:08:24,-33.1307,-64.3499,73.47,15,89,14.56,overcast clouds
581,Cururupu,BR,2022-09-23 16:08:25,-1.8283,-44.8683,90.21,49,13,8.01,few clouds
582,Gilbues,BR,2022-09-23 16:08:25,-9.8317,-45.3439,102.65,19,19,2.75,few clouds
583,Bahia Honda,CU,2022-09-23 16:08:25,22.9036,-83.1592,86.2,63,3,4.88,clear sky
584,Haines Junction,CA,2022-09-23 16:08:26,60.7522,-137.5108,37.89,96,100,3.49,light rain
585,Pathalgaon,IN,2022-09-23 16:08:26,22.5667,83.4667,72.68,96,76,3.91,broken clouds
586,Feijo,BR,2022-09-23 16:08:26,-8.1642,-70.3536,92.59,46,74,2.95,broken clouds
587,Kurikka,FI,2022-09-23 16:08:27,62.6167,22.4167,53.74,76,76,5.14,broken clouds
588,Baykit,RU,2022-09-23 16:08:27,61.67,96.37,34.92,94,97,4.18,overcast clouds
589,Lata,PT,2022-09-23 16:08:27,40.1629,-8.3327,76.91,40,48,10.76,scattered clouds
590,Lambarene,GA,2022-09-23 16:08:28,-0.7001,10.2406,81.12,80,80,5.17,moderate rain
591,Central Point,US,2022-09-23 16:08:28,42.376,-122.9164,62.01,76,0,0.0,clear sky
592,Tazovskiy,RU,2022-09-23 16:08:28,67.4667,78.7,35.58,89,100,10.65,overcast clouds
593,Yate,GB,2022-09-23 16:08:28,51.5407,-2.4184,69.42,51,2,1.99,clear sky
594,Sakakah,SA,2022-09-23 16:08:29,29.9697,40.2064,87.71,17,0,5.46,clear sky
595,San Roque,ES,2022-09-23 16:08:29,36.2107,-5.3842,74.23,78,20,9.22,few clouds
596,Kieta,PG,2022-09-23 16:08:29,-6.2167,155.6333,78.58,85,22,4.36,light rain
597,Naigarhi,IN,2022-09-23 16:08:30,24.7833,81.7833,76.6,88,91,8.19,light rain
598,Treinta Y Tres,UY,2022-09-23 16:08:30,-33.2333,-54.3833,61.45,50,0,7.56,clear sky
599,Oranjemund,NA,2022-09-23 16:08:31,-28.55,16.4333,58.17,74,42,17.83,scattered clouds
600,Etchojoa,MX,2022-09-23 16:09:32,26.9167,-109.6333,86.83,65,25,3.11,scattered clouds
601,Suntar,RU,2022-09-23 16:09:32,62.1444,117.6319,36.63,97,100,9.04,overcast clouds
602,Huarmey,PE,2022-09-23 16:09:33,-10.0681,-78.1522,66.72,72,35,10.6,scattered clouds
603,Oil City,US,2022-09-23 16:09:33,41.4339,-79.7064,55.58,61,75,9.22,broken clouds
604,Balkhash,KZ,2022-09-23 16:09:34,46.844,74.9804,70.86,35,0,18.07,clear sky
605,Ulkan,RU,2022-09-23 16:09:35,57.243,107.3223,37.0,92,99,10.38,overcast clouds
606,Tevaitoa,PF,2022-09-23 16:09:35,-16.7833,-151.5,76.93,77,25,22.82,light rain
607,Sayyan,YE,2022-09-23 16:09:35,15.1718,44.3244,70.57,28,78,13.33,broken clouds
608,Gidole,ET,2022-09-23 16:09:36,5.65,37.3667,63.9,59,95,1.14,overcast clouds
609,Prince Rupert,CA,2022-09-23 16:09:36,54.3161,-130.3201,50.59,86,100,10.38,light rain
610,Ryotsu,JP,2022-09-23 16:09:36,38.0833,138.4333,71.96,97,100,7.14,light rain
611,Salym,RU,2022-09-23 16:09:36,60.0625,71.4789,44.62,68,100,2.51,overcast clouds
612,Aban,RU,2022-09-23 16:09:37,56.67,96.06,42.53,68,100,8.55,overcast clouds
613,Willowmore,ZA,2022-09-23 16:09:37,-33.2926,23.4895,56.25,62,99,16.33,overcast clouds
614,Qujing,CN,2022-09-23 16:09:37,25.4833,103.7833,59.16,92,100,5.91,overcast clouds
615,Hirara,JP,2022-09-23 16:09:41,24.8,125.2833,81.03,82,90,13.33,overcast clouds
616,Banning,US,2022-09-23 16:06:38,33.9256,-116.8764,84.07,43,84,1.41,broken clouds
617,Malpe,IN,2022-09-23 16:09:42,13.35,74.7167,74.5,84,95,2.73,overcast clouds
618,Gisborne,NZ,2022-09-23 16:09:42,-38.6533,178.0042,50.88,89,6,8.37,clear sky
619,Jacmel,HT,2022-09-23 16:09:43,18.2342,-72.5347,91.24,59,33,4.61,scattered clouds
620,Ust-Maya,RU,2022-09-23 16:09:43,60.4167,134.5333,31.05,81,96,7.11,overcast clouds
621,Les Herbiers,FR,2022-09-23 16:09:43,46.8667,-1.0167,67.71,38,100,11.41,overcast clouds
622,El Coyote,MX,2022-09-23 16:09:44,25.7,-103.2667,77.02,46,0,9.42,clear sky
623,Tucupita,VE,2022-09-23 16:09:44,9.0622,-62.051,90.55,53,98,4.21,overcast clouds
624,Moindou,NC,2022-09-23 16:09:44,-21.6924,165.677,71.83,80,5,3.89,clear sky
625,Omsukchan,RU,2022-09-23 16:09:44,62.5333,155.8,25.21,95,96,4.32,overcast clouds
626,Tessalit,ML,2022-09-23 16:09:46,20.1986,1.0114,104.77,9,32,9.98,scattered clouds
627,General Roca,AR,2022-09-23 16:09:46,-39.0333,-67.5833,58.62,36,98,12.48,overcast clouds
628,Sao Jose Da Coroa Grande,BR,2022-09-23 16:09:47,-8.8978,-35.1478,81.32,68,56,11.43,broken clouds
629,Bonavista,CA,2022-09-23 16:09:47,48.6499,-53.1147,62.19,83,26,19.33,scattered clouds
630,Dwarka,IN,2022-09-23 16:09:47,22.2394,68.9678,81.34,72,100,11.65,overcast clouds
631,Dzhebariki-Khaya,RU,2022-09-23 16:09:48,62.2167,135.8,28.22,91,85,4.5,overcast clouds
632,Port Macquarie,AU,2022-09-23 16:09:49,-31.4333,152.9167,60.89,100,100,0.0,overcast clouds
633,Kirkenaer,NO,2022-09-23 16:09:50,60.4564,12.0582,51.62,96,100,7.96,light rain
634,Ratnagiri,IN,2022-09-23 16:09:50,16.9833,73.3,77.22,86,98,3.78,overcast clouds
635,Penarroya-Pueblonuevo,ES,2022-09-23 16:09:51,38.3,-5.2667,84.45,22,81,7.34,broken clouds
636,Husavik,IS,2022-09-23 16:09:52,66.0449,-17.3389,50.76,54,2,10.2,clear sky
637,Melilla,ES,2022-09-23 16:09:52,35.2937,-2.9383,77.38,73,40,6.91,scattered clouds
638,Eagle Pass,US,2022-09-23 16:09:53,28.7091,-100.4995,84.27,65,0,0.0,clear sky
639,Ndele,CF,2022-09-23 16:09:53,8.4109,20.6473,76.53,90,97,1.74,light rain
640,Port Jervis,US,2022-09-23 16:09:39,41.3751,-74.6927,59.68,56,5,15.75,clear sky
641,Parabel,RU,2022-09-23 16:09:53,58.6978,81.4825,41.31,76,90,7.99,overcast clouds
642,Rantepao,ID,2022-09-23 16:09:54,-2.9701,119.8978,65.97,98,35,2.51,scattered clouds
643,Buala,SB,2022-09-23 16:09:55,-8.145,159.5921,80.01,85,29,6.02,light rain
644,Gizo,SB,2022-09-23 16:09:55,-8.103,156.8419,81.36,76,54,6.26,broken clouds
645,Mount Isa,AU,2022-09-23 16:09:56,-20.7333,139.5,69.57,32,0,6.91,clear sky
646,Barra Patuca,HN,2022-09-23 16:09:59,15.8,-84.2833,83.03,78,99,3.98,overcast clouds
647,Kasongo-Lunda,CD,2022-09-23 16:10:59,-6.4667,16.8167,78.69,71,49,4.23,light rain
648,Hong Gai,VN,2022-09-23 16:11:00,20.956,107.0946,76.91,82,70,6.44,broken clouds
649,Usinsk,RU,2022-09-23 16:11:00,65.9939,57.5281,35.17,73,27,6.58,scattered clouds
650,Yerbogachen,RU,2022-09-23 16:11:00,61.2767,108.0108,32.68,99,100,8.37,snow
651,Kristiansand,NO,2022-09-23 16:11:00,58.1467,7.9956,59.86,80,20,6.91,few clouds
652,Salinas,US,2022-09-23 16:11:01,36.6777,-121.6555,68.83,70,0,6.91,clear sky
653,Berlevag,NO,2022-09-23 16:11:01,70.8578,29.0864,50.0,76,100,9.22,overcast clouds
654,Pilar,BR,2022-09-23 16:11:01,-9.5972,-35.9567,84.13,63,58,10.18,broken clouds
655,Kjopsvik,NO,2022-09-23 16:11:02,68.097,16.3742,51.67,82,100,3.8,light rain
656,Deputatskiy,RU,2022-09-23 16:11:03,69.3,139.9,14.05,97,87,2.93,overcast clouds
657,Istok,XK,2022-09-23 16:11:03,42.7808,20.4875,54.66,58,63,4.07,broken clouds
658,Laem Sing,TH,2022-09-23 16:11:04,12.4816,102.0738,81.01,89,100,4.74,light rain
659,Port Hardy,CA,2022-09-23 16:11:04,50.6996,-127.4199,51.8,96,100,4.88,light rain
660,Washim,IN,2022-09-23 16:11:04,20.1,77.15,69.96,93,23,7.74,few clouds
661,Khanpur,PK,2022-09-23 16:11:05,28.6453,70.6567,92.12,24,4,5.48,clear sky
662,Barentin,FR,2022-09-23 16:11:05,49.5453,0.9552,66.16,69,100,6.31,light rain
663,College,US,2022-09-23 16:11:06,64.8569,-147.8028,34.9,91,75,0.0,broken clouds
664,Adrar,MR,2022-09-23 16:11:06,20.5022,-10.0711,100.69,21,16,10.6,few clouds
665,Samarai,PG,2022-09-23 16:11:06,-10.6167,150.6667,79.41,82,83,8.16,broken clouds
666,Xai-Xai,MZ,2022-09-23 16:11:07,-25.0519,33.6442,74.12,80,0,12.62,clear sky
667,Bam,IR,2022-09-23 16:11:07,29.106,58.357,85.55,10,1,7.7,clear sky
668,Gravdal,NO,2022-09-23 16:11:07,68.1214,13.5031,51.69,100,75,6.91,broken clouds
669,Penzance,GB,2022-09-23 16:11:08,50.1186,-5.5371,63.77,77,20,17.27,few clouds
670,Boyolangu,ID,2022-09-23 16:11:09,-8.1181,111.8935,75.56,93,75,4.25,broken clouds
671,Felanitx,ES,2022-09-23 16:11:09,39.4696,3.1483,80.96,52,29,10.89,scattered clouds
672,Slave Lake,CA,2022-09-23 16:06:24,55.2834,-114.769,55.11,53,75,14.14,broken clouds
673,Lavrentiya,RU,2022-09-23 16:11:10,65.5833,-171.0,42.21,84,100,18.75,overcast clouds
674,Bonfim,BR,2022-09-23 16:11:10,3.0833,-59.95,92.8,47,3,2.1,clear sky
675,Binga,ZW,2022-09-23 16:11:11,-17.6203,27.3414,84.72,31,18,5.68,few clouds
676,Lerwick,GB,2022-09-23 16:11:11,60.1545,-1.1494,55.4,74,3,9.31,clear sky
677,Aitape,PG,2022-09-23 16:11:12,-3.1374,142.3475,77.59,87,99,1.99,light rain
678,Verkhnyaya Inta,RU,2022-09-23 16:11:12,65.9811,60.3094,34.29,78,34,5.95,scattered clouds
679,Nicoya,CR,2022-09-23 16:11:13,10.1483,-85.452,84.07,72,87,0.31,overcast clouds
680,Quang Ngai,VN,2022-09-23 16:11:13,15.1167,108.8,75.97,94,100,3.15,overcast clouds
681,Matagami,CA,2022-09-23 16:11:14,49.7502,-77.6328,49.98,56,38,7.85,scattered clouds
682,Chernyanka,RU,2022-09-23 16:11:14,50.9409,37.8069,48.31,95,100,8.23,light rain
683,Guane,CU,2022-09-23 16:11:14,22.2025,-84.0875,88.9,57,1,2.64,clear sky
684,Zambezi,ZM,2022-09-23 16:11:15,-13.5432,23.1047,91.04,14,7,4.41,clear sky
685,Atasu,KZ,2022-09-23 16:06:21,48.6814,71.6433,70.32,34,0,10.22,clear sky
686,Acari,PE,2022-09-23 16:11:15,-15.4311,-74.6158,72.25,51,60,9.66,broken clouds
687,Smithers,CA,2022-09-23 16:11:16,54.7804,-127.1743,45.23,83,54,3.38,broken clouds
688,Urucui,BR,2022-09-23 16:11:16,-7.2294,-44.5561,105.21,22,15,3.31,few clouds
689,Aklavik,CA,2022-09-23 16:11:16,68.2191,-135.0107,35.6,93,100,9.22,light intensity drizzle
690,Marsa Matruh,EG,2022-09-23 16:11:17,31.3525,27.2453,76.71,62,0,17.54,clear sky
691,Ormara,PK,2022-09-23 16:11:17,25.2088,64.6357,79.74,84,88,16.33,overcast clouds
692,Juneau,US,2022-09-23 16:08:01,58.3019,-134.4197,48.22,100,100,8.21,moderate rain
693,Zhigansk,RU,2022-09-23 16:12:18,66.7697,123.3711,29.01,81,97,6.78,overcast clouds
694,Llata,PE,2022-09-23 16:12:18,-9.4167,-76.7833,64.44,42,61,9.24,broken clouds
695,Campeche,MX,2022-09-23 16:12:19,19.0,-90.5,77.18,91,100,1.79,overcast clouds
696,Rexburg,US,2022-09-23 16:11:48,43.826,-111.7897,55.42,58,0,11.5,clear sky
697,Kaka,TM,2022-09-23 16:12:19,37.3482,59.6143,81.93,12,0,4.65,clear sky
